City,Max_Temp,Humidity,Cloudiness,Wind_Speed,Latitude,Longitude,Country,Date
Punta Arenas,42.8,70,75,13.87,-53.15,-70.92,CL,1604990927
Namatanai,82.98,74,77,4.83,-3.67,152.43,PG,1604990999
Carnarvon,75.2,47,0,18.34,-24.87,113.63,AU,1604990999
Busselton,62.01,48,28,5.99,-33.65,115.33,AU,1604990723
Cherskiy,1.6,94,100,4.0,68.75,161.3,RU,1604990826
Saint Paul Harbor,30.2,80,1,6.93,57.79,-152.41,US,1604991000
Ushuaia,42.8,75,40,31.09,-54.8,-68.3,AR,1604990895
Soyo,75.2,88,75,3.96,-6.13,12.37,AO,1604991000
Mataura,54.0,81,0,13.0,-46.19,168.86,NZ,1604990926
Praia,77.0,78,0,13.87,14.92,-23.51,CV,1604991001
Bengkulu,82.98,76,100,5.17,-3.8,102.27,ID,1604991001
Oranjemund,62.26,45,0,14.72,-28.55,16.43,NA,1604991001
Butaritari,83.7,67,21,4.18,3.07,172.79,KI,1604990928
Yar-Sale,10.71,93,89,8.05,66.83,70.83,RU,1604991002
Port Elizabeth,62.6,72,0,11.41,-33.92,25.57,ZA,1604991002
Ilulissat,6.04,93,100,5.68,69.22,-51.1,GL,1604991003
Bubaque,82.51,72,22,5.95,11.28,-15.83,GW,1604991003
Barrow,8.6,78,90,17.22,71.29,-156.79,US,1604991001
Kapaa,73.4,100,90,4.7,22.08,-159.32,US,1604990929
Bluff,54.0,81,0,13.0,-46.6,168.33,NZ,1604990928
Boca do Acre,72.18,91,100,1.19,-8.75,-67.4,BR,1604991003
New Norfolk,80.01,27,68,1.99,-42.78,147.06,AU,1604991004
Hobart,77.0,41,0,10.29,-42.88,147.33,AU,1604990773
Tiksi,-12.66,89,57,6.67,71.69,128.87,RU,1604990629
Kovernino,33.19,94,95,8.79,57.13,43.81,RU,1604991004
Saskylakh,6.28,93,100,14.41,71.92,114.08,RU,1604990930
Mackay,78.8,57,75,14.99,-21.15,149.2,AU,1604991005
Ukiah,39.2,60,1,2.08,39.15,-123.21,US,1604990408
Kodinsk,35.65,83,100,10.02,58.69,99.18,RU,1604991005
Rikitea,74.21,77,56,15.17,-23.12,-134.97,PF,1604990929
Airai,70.74,87,100,3.09,-8.93,125.41,TL,1604991005
Cape Town,63.0,54,0,16.11,-33.93,18.42,ZA,1604990931
Guymon,35.6,80,90,18.34,36.68,-101.48,US,1604990812
Atuona,78.22,74,1,12.77,-9.8,-139.03,PF,1604990926
Nikolskoye,34.0,100,20,8.95,59.7,30.79,RU,1604991006
Hong Kong,75.99,47,14,1.99,22.29,114.16,HK,1604990881
Ostrovnoy,34.16,87,100,15.9,68.05,39.51,RU,1604990931
Lagos,77.99,90,3,1.9,6.58,3.75,NG,1604991007
Half Moon Bay,48.2,56,1,3.89,37.46,-122.43,US,1604990911
Kruisfontein,61.0,72,3,3.0,-34.0,24.73,ZA,1604990926
Thompson,12.2,92,90,6.93,55.74,-97.86,CA,1604990932
Avarua,75.2,94,0,12.75,-21.21,-159.78,CK,1604991008
Jos,68.22,35,0,5.03,9.92,8.9,NG,1604991008
Nhulunbuy,87.8,58,40,13.87,-12.23,136.77,AU,1604991008
Hermanus,63.0,54,0,5.01,-34.42,19.23,ZA,1604991008
Chokurdakh,-16.42,90,78,1.1,70.63,147.92,RU,1604990930
Lodja,70.81,95,100,3.11,-3.48,23.43,CD,1604991009
Faanui,79.11,79,100,14.99,-16.48,-151.75,PF,1604991009
Xai-Xai,75.85,75,99,19.91,-25.05,33.64,MZ,1604991009
Tuktoyaktuk,-0.4,84,75,12.75,69.45,-133.04,CA,1604991009
Constitución,55.06,78,0,4.83,-35.33,-72.42,CL,1604991010
Marfino,37.99,74,75,11.18,55.7,37.38,RU,1604991010
Lompoc,44.6,56,1,7.54,34.64,-120.46,US,1604991010
Ardu,42.8,81,90,2.24,59.1,25.35,EE,1604991010
São Filipe,80.13,72,4,5.01,14.9,-24.5,CV,1604991010
Grindavik,35.6,63,40,13.87,63.84,-22.43,IS,1604991011
Waipawa,51.8,76,99,28.86,-41.41,175.52,NZ,1604991011
Kumluca,73.22,38,39,3.96,36.37,30.29,TR,1604991011
Kapit,92.17,50,99,2.62,2.02,112.93,MY,1604991011
Khatanga,9.28,95,100,10.63,71.97,102.5,RU,1604991012
Beringovskiy,28.71,95,100,19.13,63.05,179.32,RU,1604991012
Port Alfred,60.31,77,100,7.65,-33.59,26.89,ZA,1604990925
Te Anau,60.39,68,0,3.02,-45.42,167.72,NZ,1604991012
San Francisco,50.0,49,20,5.82,37.77,-122.42,US,1604990887
Hithadhoo,82.71,77,100,21.7,-0.6,73.08,MV,1604991013
George Town,89.6,59,20,4.7,5.41,100.34,MY,1604990932
Qeshm,91.4,22,0,4.7,26.96,56.27,IR,1604991013
Castro,58.98,95,100,7.43,-24.79,-50.01,BR,1604990927
East London,59.0,82,75,11.41,-33.02,27.91,ZA,1604990864
Oodweyne,79.93,39,0,5.88,9.41,45.06,SO,1604991014
Nanortalik,28.54,93,19,14.29,60.14,-45.24,GL,1604991014
Naze,73.4,56,40,12.75,28.37,129.48,JP,1604991014
Saint-Augustin,34.39,90,100,12.84,51.23,-58.65,CA,1604991015
Clyde River,6.8,84,90,9.17,70.47,-68.59,CA,1604991015
Esperance,57.2,87,90,32.21,-33.87,121.9,AU,1604991015
Sola,80.6,94,90,14.99,-13.88,167.55,VU,1604991015
Bredasdorp,59.0,62,20,3.36,-34.53,20.04,ZA,1604991016
Hilo,75.2,83,75,9.17,19.73,-155.09,US,1604990836
Provideniya,33.85,95,100,14.03,64.38,-173.3,RU,1604991016
Empalme,59.0,60,0,3.0,27.97,-110.82,MX,1604991016
Jiaozuo,68.14,26,0,6.89,35.24,113.23,CN,1604991017
Teya,33.53,91,81,13.89,60.38,92.63,RU,1604991017
Ahipara,57.38,81,20,13.6,-35.17,173.17,NZ,1604991017
Yellowknife,23.0,85,75,17.22,62.46,-114.35,CA,1604990812
Okhotsk,1.2,86,0,14.5,59.38,143.3,RU,1604991017
Albany,46.0,100,1,2.3,42.6,-73.97,US,1604990703
Mount Gambier,96.8,18,40,19.46,-37.83,140.77,AU,1604991018
Zharkent,51.3,45,100,7.61,44.16,80.0,KZ,1604991018
Tasiilaq,31.68,96,100,12.64,65.61,-37.64,GL,1604991018
Inírida,72.55,97,99,1.68,3.87,-67.92,CO,1604991019
Saint-Philippe,82.4,54,0,23.04,-21.36,55.77,RE,1604991019
La Rioja,53.01,93,40,8.05,42.25,-2.5,ES,1604991019
Willowmore,55.13,43,0,10.4,-33.29,23.49,ZA,1604991019
Haines Junction,26.6,53,0,6.93,60.75,-137.51,CA,1604991019
Ngerengere,75.2,88,75,4.23,-6.75,38.12,TZ,1604991020
Hamilton,64.99,67,1,8.05,39.18,-84.53,US,1604991020
Vaini,77.0,83,40,8.05,-21.2,-175.2,TO,1604991020
Ilebo,70.41,93,100,1.74,-4.32,20.58,CD,1604991020
Morondava,85.95,55,0,7.74,-20.28,44.28,MG,1604991021
Gobabis,74.17,29,1,11.56,-22.45,18.97,NA,1604991021
Huanren,41.4,62,0,3.47,41.26,125.37,CN,1604991021
Lebu,51.03,92,8,16.49,-37.62,-73.65,CL,1604990872
La Ronge,5.0,84,4,4.7,55.1,-105.28,CA,1604991022
Lucea,82.4,65,20,13.87,18.45,-78.17,JM,1604991022
Bocana de Paiwas,72.18,93,89,3.02,12.79,-85.12,NI,1604991022
Touros,73.4,100,75,1.12,-5.2,-35.46,BR,1604991023
Ponta do Sol,64.4,77,75,6.93,32.67,-17.1,PT,1604991023
Natal,75.2,94,75,8.05,-5.79,-35.21,BR,1604991023
Praxédis Guerrero,53.6,40,20,11.41,31.37,-106.02,MX,1604991023
Daneş,37.4,100,90,2.89,46.22,24.7,RO,1604991023
Aklavik,-2.2,83,0,3.36,68.22,-135.01,CA,1604991024
Oparino,29.88,96,100,9.73,59.85,48.28,RU,1604991024
Wodonga,84.2,30,24,9.17,-36.12,146.88,AU,1604991024
Jieshi,78.01,49,36,23.8,22.81,115.83,CN,1604991024
Bambanglipuro,84.92,67,86,14.43,-7.95,110.28,ID,1604991024
Praia,77.0,78,0,13.87,14.92,-23.51,CV,1604991001
Jamestown,55.4,71,1,8.05,42.1,-79.24,US,1604990747
Krasnoarmiys'k,43.9,62,13,13.15,48.28,37.18,UA,1604991025
Portland,46.0,65,90,8.05,45.52,-122.68,US,1604990637
Vostok,10.9,91,100,5.82,46.49,135.88,RU,1604991026
Qaanaaq,-4.86,64,0,6.58,77.48,-69.36,GL,1604990930
Sitka,42.8,60,1,6.93,57.05,-135.33,US,1604991026
Tejutla,64.0,97,51,2.19,15.12,-91.8,GT,1604991026
Havelock,66.2,93,90,5.82,34.88,-76.9,US,1604991026
Nishihara,73.4,56,90,17.22,26.18,127.76,JP,1604991027
Dikson,13.1,97,100,15.37,73.51,80.55,RU,1604991027
Itoman,73.4,64,75,19.46,26.12,127.67,JP,1604991027
Hīt,71.42,57,0,7.11,33.64,42.83,IQ,1604991027
Verāval,85.77,35,0,7.92,20.9,70.37,IN,1604991028
Kuytun,35.51,95,100,3.04,54.34,101.5,RU,1604991028
Leningradskiy,24.6,94,100,17.27,69.38,178.42,RU,1604991028
Dingle,84.07,78,100,1.66,11.0,122.67,PH,1604991028
Obo,79.41,69,43,2.73,5.4,26.49,CF,1604991028
Harper,78.03,85,71,5.23,4.38,-7.72,LR,1604991029
Kaitangata,52.0,77,0,11.01,-46.28,169.85,NZ,1604991029
Iquique,64.4,63,90,8.05,-20.22,-70.14,CL,1604991029
Santa Cruz del Sur,79.97,84,0,13.89,20.71,-78.0,CU,1604991029
Hanna,19.4,85,99,2.24,51.63,-111.9,CA,1604991029
Pevek,18.28,95,87,7.65,69.7,170.31,RU,1604991030
Anadyr,28.4,86,75,40.26,64.75,177.48,RU,1604991005
Bayshore Gardens,78.8,88,90,11.41,27.43,-82.59,US,1604991030
‘Āhuimanu,79.0,74,40,12.75,21.44,-157.84,US,1604991030
Poum,74.98,74,100,16.11,-20.23,164.02,NC,1604990929
Rome,50.0,81,1,8.05,43.21,-75.46,US,1604991031
Thunder Bay,33.8,74,40,19.46,48.4,-89.32,CA,1604990793
Yurimaguas,72.99,96,100,1.05,-5.9,-76.08,PE,1604991031
Rocha,56.19,92,100,5.17,-34.48,-54.33,UY,1604991031
Dengzhou,57.96,36,0,8.03,37.81,120.75,CN,1604991032
Kyren,39.79,69,0,1.45,51.68,102.14,RU,1604991032
Nioro,73.76,96,1,3.56,13.35,-15.75,GM,1604991032
Porosozero,30.49,95,1,8.46,62.72,32.73,RU,1604991032
Caxias,55.99,100,40,1.12,38.7,-9.28,PT,1604991033
Tocopilla,59.41,69,37,1.77,-22.09,-70.2,CL,1604991033
San Patricio,73.0,94,20,3.36,28.02,-97.52,US,1604991033
Abbeville,53.01,66,1,4.43,50.1,1.83,FR,1604991033
Caravelas,71.4,91,0,3.33,-17.71,-39.25,BR,1604990871
Saint Lawrence,63.0,82,20,3.36,36.06,14.2,MT,1604991034
Leh,40.78,45,97,3.76,34.17,77.58,IN,1604990933
Inuvik,-2.2,83,0,3.36,68.35,-133.72,CA,1604991034
San Quintín,56.05,57,0,4.7,30.48,-115.95,MX,1604991035
Cashel,50.0,95,100,1.99,52.52,-7.89,IE,1604991035
Bridlington,52.0,100,64,7.78,54.08,-0.19,GB,1604991035
Arraial do Cabo,73.27,93,100,11.7,-22.97,-42.03,BR,1604990925
Ibrā’,87.71,24,0,3.98,22.69,58.53,OM,1604991036
Chapais,55.4,76,1,12.75,49.78,-74.85,CA,1604991036
Noumea,73.4,60,90,16.11,-22.28,166.46,NC,1604990856
Kodīnar,86.79,35,0,10.89,20.79,70.7,IN,1604991037
Mahon,57.2,93,20,3.36,39.89,4.27,ES,1604991037
Mbulu,63.3,83,98,6.69,-3.85,35.53,TZ,1604991037
Bethel,52.0,87,1,3.04,41.37,-73.41,US,1604991038
Prince Rupert,42.8,93,90,6.93,54.32,-130.32,CA,1604991038
Los Palacios,75.04,94,53,6.76,22.59,-83.25,CU,1604991038
Korla,53.24,33,74,6.6,41.76,86.15,CN,1604991038
Mar del Plata,55.4,93,78,8.23,-38.0,-57.56,AR,1604991038
Alvarães,73.35,97,100,1.21,-3.22,-64.8,BR,1604990863
Acaponeta,71.51,85,0,2.13,22.5,-105.36,MX,1604991039
Vilhena,68.31,94,100,2.06,-12.74,-60.15,BR,1604991039
Norman Wells,-4.0,76,40,13.87,65.28,-126.83,CA,1604990976
Petropavlovka,37.65,75,100,1.92,50.61,105.32,RU,1604991040
Codrington,79.93,68,0,13.94,-38.27,141.97,AU,1604991040
Chui,63.05,78,100,9.75,-33.7,-53.46,UY,1604991040
Bathsheba,80.6,83,40,16.11,13.22,-59.52,BB,1604991040
Bay Roberts,42.01,98,100,5.01,47.6,-53.26,CA,1604991040
Lucapa,71.51,85,100,7.02,-8.42,20.74,AO,1604991041
Copiapó,55.4,82,8,2.24,-27.37,-70.33,CL,1604991041
Matara,86.36,65,100,7.76,5.95,80.54,LK,1604991041
Saint George,35.6,74,1,4.7,37.1,-113.58,US,1604990754
Upernavik,4.5,83,100,9.06,72.79,-56.15,GL,1604991042
Boyolangu,84.47,67,100,10.94,-8.12,111.89,ID,1604991042
Sechura,62.33,83,100,6.24,-5.56,-80.82,PE,1604991042
Port Hardy,41.0,100,75,2.24,50.7,-127.42,CA,1604991042
Los Llanos de Aridane,68.0,77,90,8.05,28.66,-17.92,ES,1604991043
Puerto Ayora,66.0,90,42,7.87,-0.74,-90.35,EC,1604991043
Longyearbyen,21.2,62,75,17.22,78.22,15.64,SJ,1604990924
Tripoli,68.63,62,30,4.47,32.88,13.19,LY,1604991043
Mawlaik,88.07,40,0,2.89,23.63,94.42,MM,1604991043
Vila Franca do Campo,66.2,82,75,19.46,37.72,-25.43,PT,1604991044
Pringsewu,90.91,47,100,3.96,-5.36,104.97,ID,1604991044
Tommot,18.01,96,100,1.34,58.96,126.29,RU,1604991044
Viedma,61.0,94,100,11.97,-40.81,-63.0,AR,1604991044
Pergamino,57.99,92,0,1.01,-33.89,-60.57,AR,1604990848
Ternate,84.36,72,20,6.42,0.8,127.4,ID,1604991045
Iqaluit,3.2,77,75,9.17,63.75,-68.51,CA,1604991045
Camocim,78.53,82,6,12.53,-2.9,-40.84,BR,1604991045
Novobirilyussy,36.99,81,99,11.45,56.95,90.67,RU,1604991046
Laas,37.4,86,40,6.93,46.62,10.7,IT,1604991046
Ola,7.02,84,51,11.3,59.58,151.28,RU,1604991046
Esim,79.03,84,34,7.38,4.87,-2.24,GH,1604991046
Matagami,57.2,76,1,10.29,49.75,-77.63,CA,1604991046
Arlit,68.59,29,0,8.84,18.74,7.39,NE,1604991046
Herat Province,51.8,57,25,2.24,34.5,62.0,AF,1604991047
Quatre Cocos,80.01,69,40,12.75,-20.21,57.76,MU,1604991047
Cabedelo,75.2,94,75,8.05,-6.98,-34.83,BR,1604991047
Departamento de Maldonado,61.0,93,0,4.7,-34.67,-54.92,UY,1604991048
Bagdarin,28.89,95,76,2.68,54.43,113.6,RU,1604991048
Comodoro Rivadavia,53.6,87,0,3.36,-45.87,-67.5,AR,1604991048
Lagoa,62.4,91,100,15.35,39.05,-27.98,PT,1604990931
Mishawaka,69.8,64,90,13.87,41.66,-86.16,US,1604991049
Tilichiki,9.18,94,78,9.75,60.47,166.1,RU,1604991049
Kaeo,60.01,76,11,8.99,-35.1,173.78,NZ,1604991049
Skellefteå,26.6,92,0,4.7,64.75,20.95,SE,1604991049
Ribeira Grande,63.23,90,100,17.16,38.52,-28.7,PT,1604990930
Langsa,85.46,71,19,4.74,4.47,97.97,ID,1604990948
Mahébourg,78.8,69,40,12.75,-20.41,57.7,MU,1604991050
Umm Kaddadah,76.64,22,100,19.1,13.6,26.69,SD,1604991050
Mehamn,35.6,80,75,29.97,71.04,27.85,NO,1604991050
Tuatapere,54.0,82,0,13.0,-46.13,167.68,NZ,1604991051
Katsuura,62.01,55,75,4.7,35.13,140.3,JP,1604991051
Severomuysk,24.03,96,91,3.87,56.15,113.43,RU,1604991051
Kitimat,36.0,95,100,1.25,54.05,-128.65,CA,1604991051
Guerrero Negro,61.03,71,0,13.2,27.98,-114.06,MX,1604991052
Redmond,39.99,94,100,6.69,47.67,-122.12,US,1604990750
Port Lincoln,86.04,28,74,3.8,-34.73,135.87,AU,1604990928
Yabēlo,68.77,64,4,18.14,4.88,38.08,ET,1604991052
Peterhead,50.0,100,90,11.41,57.51,-1.8,GB,1604991052
Vardø,32.0,79,40,21.92,70.37,31.11,NO,1604991053
Mount Isa,98.6,18,100,14.99,-20.73,139.5,AU,1604991053
Semey,42.8,81,75,24.61,50.41,80.23,KZ,1604990780
Acaraú,77.85,86,13,11.36,-2.89,-40.12,BR,1604991053
Mossamedes,74.68,75,90,15.75,-15.2,12.15,AO,1604991053
Lüderitz,69.21,27,0,17.85,-26.65,15.16,NA,1604991054
Torbay,41.0,93,90,5.82,47.67,-52.73,CA,1604991054
Yanam,86.0,51,0,9.17,16.73,82.22,IN,1604991054
Luau,72.34,79,85,2.24,-10.71,22.22,AO,1604991054
Olafsvik,41.88,66,0,19.35,64.89,-23.71,IS,1604991055
São Mateus,69.6,95,21,2.55,-18.72,-39.86,BR,1604990773
Lima,64.4,82,75,9.17,-12.04,-77.03,PE,1604990833
Nerchinskiy Zavod,28.17,98,97,4.74,51.31,119.61,RU,1604991056
Azul,50.67,96,0,5.88,-36.78,-59.86,AR,1604990829
San Joaquin,42.01,56,1,4.7,37.93,-121.3,US,1604991056
Mingoyo,84.2,58,75,17.22,-10.1,39.63,TZ,1604991057
Dargaville,55.9,86,32,8.52,-35.93,173.88,NZ,1604991057
Ponta Delgada,66.2,82,75,19.46,37.73,-25.67,PT,1604991057
Santiago del Estero,73.0,74,100,1.99,-27.8,-64.26,AR,1604991058
Svetlaya,25.57,79,0,9.73,46.54,138.33,RU,1604991058
Kavieng,83.75,72,51,6.15,-2.57,150.8,PG,1604991058
Saint-Joseph,82.4,54,0,23.04,-21.37,55.62,RE,1604991059
Fort Nelson,28.4,86,90,9.17,58.81,-122.7,CA,1604991059
Birin,68.14,47,0,4.99,26.89,88.07,NP,1604991059
Antofagasta,60.8,72,90,4.7,-23.65,-70.4,CL,1604990959
Concepción de la Vega,73.99,100,75,11.41,19.22,-70.53,DO,1604991060
Cabo Rojo,78.01,94,100,4.23,18.09,-67.15,PR,1604991060
Broken Hill,93.2,20,39,17.22,-31.95,141.43,AU,1604991016
Acajutla,69.01,100,43,1.01,13.59,-89.83,SV,1604991061
Udachny,28.4,79,90,11.18,66.42,112.4,RU,1604991007
Pacific Grove,44.6,56,1,5.82,36.62,-121.92,US,1604990864
Gimli,19.4,67,100,10.29,50.63,-96.99,CA,1604991061
Klaksvík,50.0,100,98,16.11,62.23,-6.59,FO,1604991061
Bambous Virieux,79.0,69,40,12.75,-20.34,57.76,MU,1604990931
Biak,84.61,61,47,2.42,-0.91,122.88,ID,1604991062
Najrān,77.0,29,0,4.7,17.49,44.13,SA,1604991062
Yangjiang,74.14,45,89,11.32,21.85,111.97,CN,1604991062
Broome,57.2,71,1,4.7,42.25,-75.83,US,1604991063
Al Bardīyah,64.76,72,0,12.64,31.76,25.09,LY,1604991063
Rāyagada,82.9,41,0,3.69,19.17,83.42,IN,1604991063
Nipawin,-7.6,83,1,5.82,53.37,-104.0,CA,1604991063
Honningsvåg,35.6,80,75,20.8,70.98,25.97,NO,1604991064
Esna,73.87,39,79,9.19,25.29,32.55,EG,1604991064
Meulaboh,85.23,66,50,6.42,4.14,96.13,ID,1604991064
Auki,82.51,77,72,4.83,-8.77,160.7,SB,1604991064
Tautira,78.8,69,75,4.7,-17.73,-149.15,PF,1604991065
Anloga,77.0,88,20,1.12,5.79,0.9,GH,1604991065
Yaan,76.59,81,19,4.21,7.38,8.57,NG,1604991065
Wukari,76.98,52,5,2.98,7.85,9.78,NG,1604991065
Tura,82.76,50,0,1.5,25.52,90.22,IN,1604991066
Straumen,48.0,100,0,5.82,63.87,11.3,NO,1604991066
Port Blair,84.06,67,0,14.54,11.67,92.75,IN,1604991066
Kiunga,90.75,59,100,3.4,-6.12,141.29,PG,1604991066
Kudahuvadhoo,83.77,68,100,4.63,2.67,72.89,MV,1604991067
Zhalantun,39.7,68,0,5.1,48.0,122.72,CN,1604991067
Yurkivka,44.24,67,0,8.1,49.01,31.1,UA,1604991067
Maceió,73.4,94,40,3.36,-9.67,-35.74,BR,1604990660
Tupã,68.14,91,100,3.18,-21.93,-50.51,BR,1604991068
Koumac,73.94,72,100,15.52,-20.57,164.28,NC,1604991068
Manokwari,85.44,59,94,2.44,-0.87,134.08,ID,1604991068
Sinjār,64.04,63,21,6.58,36.32,41.88,IQ,1604991069
Waddān,60.46,73,0,6.96,29.16,16.14,LY,1604991069
Kurumkan,34.5,87,96,0.45,54.3,110.3,RU,1604991069
Talnakh,3.2,91,40,13.42,69.49,88.4,RU,1604991049
Koungheul,73.63,81,0,3.18,13.98,-14.8,SN,1604991069
Naples,63.0,81,0,2.24,40.83,14.25,IT,1604991070
Necochea,54.0,89,23,5.01,-38.55,-58.74,AR,1604991070
Cidreira,67.41,93,100,13.22,-30.18,-50.21,BR,1604991070
Maniitsoq,18.68,87,99,5.61,65.42,-52.9,GL,1604991070
Sampang,87.64,54,100,4.79,-7.19,113.24,ID,1604991070
Seoul,55.4,30,1,3.36,37.57,126.98,KR,1604990823
São João do Piauí,74.5,70,0,7.18,-8.36,-42.25,BR,1604991071
Puri,84.2,48,75,10.29,19.8,85.85,IN,1604991071
Makat,46.31,58,100,10.78,47.65,53.35,KZ,1604991071
Guanare,72.23,92,100,2.64,9.04,-69.74,VE,1604991071
Cajititlán,63.0,72,5,4.07,20.43,-103.32,MX,1604991072
Itarema,78.21,84,11,11.56,-2.92,-39.92,BR,1604991046
Jaumave,73.0,67,0,5.01,23.42,-99.38,MX,1604991072
Dubbo,82.4,26,0,8.05,-32.25,148.62,AU,1604990977
Nahavand,58.42,52,4,5.14,34.19,48.38,IR,1604991073
Otofuke,39.2,41,20,11.41,42.99,143.2,JP,1604991073
Port-Gentil,77.0,94,20,15.68,-0.72,8.78,GA,1604991073
Chicama,60.39,84,90,1.74,-7.84,-79.15,PE,1604991073
Payson,33.8,50,75,3.36,40.04,-111.73,US,1604991073
Lorengau,84.99,65,5,4.12,-2.02,147.27,PG,1604991074
Tiarei,78.8,69,75,4.7,-17.53,-149.33,PF,1604991074
Coyhaique,47.91,85,98,5.03,-45.58,-72.07,CL,1604991074
Pacifica,50.0,49,20,5.82,37.61,-122.49,US,1604991074
Northam,52.0,97,93,5.99,51.03,-4.22,GB,1604991075
Pisco,62.6,88,0,8.05,-13.7,-76.22,PE,1604991075
Merauke,84.65,72,97,20.27,-8.47,140.33,ID,1604991075
Ancud,50.0,87,0,13.87,-41.87,-73.82,CL,1604991076
Acarí,62.71,71,37,2.33,-15.43,-74.62,PE,1604991076
Butembo,66.52,93,100,0.54,0.15,29.28,CD,1604991076
Zhigansk,-3.6,91,100,21.09,66.77,123.37,RU,1604991076
Gijang,60.8,15,20,9.17,35.24,129.21,KR,1604991077
Beloha,94.37,27,1,6.67,-25.17,45.05,MG,1604991077
Fortuna,39.99,86,90,6.93,40.6,-124.16,US,1604990932
Luanda,75.2,88,75,5.82,-8.84,13.23,AO,1604990896
Bac Lieu,82.47,67,100,13.33,9.29,105.72,VN,1604991077
Kungurtug,34.41,80,0,1.43,50.6,97.52,RU,1604991078
Litovko,22.01,76,4,3.83,49.24,135.17,RU,1604990781
Upington,64.4,42,0,5.82,-28.45,21.26,ZA,1604991078
Grand Gaube,80.01,61,0,11.99,-20.01,57.66,MU,1604991078
Pangnirtung,3.2,82,73,2.57,66.15,-65.71,CA,1604991070
Iquitos,75.2,94,0,3.36,-3.75,-73.25,PE,1604991079
Cabo San Lucas,73.0,81,52,1.01,22.89,-109.91,MX,1604990847
San Luis,61.09,83,100,18.43,-33.3,-66.34,AR,1604991075
Gornopravdinsk,28.67,97,100,8.39,60.05,69.9,RU,1604991080
Povenets,33.69,90,51,12.66,62.85,34.83,RU,1604991080
Makakilo City,78.8,69,1,4.7,21.35,-158.09,US,1604991080
Sur,83.35,52,0,7.83,22.57,59.53,OM,1604990926
Vysokogornyy,9.37,87,60,8.34,50.12,139.15,RU,1604991081
Yārāda,86.0,40,0,8.05,17.65,83.27,IN,1604991081
Rafai,78.69,71,100,1.72,4.95,23.92,CF,1604991081
Kushima,64.4,45,20,6.93,31.46,131.23,JP,1604991081
Vila Velha,75.2,83,20,9.17,-20.33,-40.29,BR,1604990898
Le Port,82.4,45,0,21.92,-20.94,55.29,RE,1604990991
Tianpeng,71.01,1,34,5.01,30.99,103.94,CN,1604990923
Macomb,66.0,88,40,11.41,40.46,-90.67,US,1604991082
Sakaiminato,57.2,50,75,10.29,35.55,133.23,JP,1604991083
Severo-Kuril'sk,36.23,79,100,14.79,50.68,156.12,RU,1604991083
Urubichá,70.95,93,100,2.13,-15.38,-62.95,BO,1604991083
Garden City,64.0,72,20,4.7,42.33,-83.33,US,1604991083
Orocovis,78.01,96,100,2.51,18.23,-66.39,PR,1604991083
Salalah,87.8,38,0,4.7,17.02,54.09,OM,1604991084
Cerritos,51.8,57,1,4.7,33.86,-118.06,US,1604991084
Flin Flon,5.34,93,0,1.28,54.77,-101.86,CA,1604991084
Dnestrovsc,46.4,81,90,8.95,46.62,29.91,MD,1604991084
Emerald,86.0,23,40,12.75,-23.53,148.17,AU,1604991085
Taoudenni,73.35,21,0,9.33,22.68,-3.98,ML,1604991085
Basco,78.57,83,78,33.8,20.45,121.97,PH,1604991085
Oga,42.01,100,0,1.12,46.46,10.35,IT,1604991085
Narsaq,24.28,88,3,3.47,60.92,-46.05,GL,1604991085
Taltal,57.04,80,84,3.11,-25.4,-70.48,CL,1604991086
Gongzhuling,42.06,59,0,11.5,43.5,124.82,CN,1604991086
Saldanha,60.8,48,0,10.29,-33.01,17.94,ZA,1604991086
Enfield,93.2,26,0,13.87,-34.85,138.6,AU,1604991085
High Level,26.6,100,75,9.17,58.52,-117.14,CA,1604991086
Owando,72.99,93,96,2.91,-0.48,15.9,CG,1604991087
Geraldton,68.0,42,75,17.22,-28.77,114.6,AU,1604991087
Mujiayingzi,53.74,38,0,9.66,42.12,118.78,CN,1604991087
Kununurra,104.0,29,75,11.41,-15.77,128.73,AU,1604991087
Young,63.0,85,81,1.99,-32.68,-57.63,UY,1604991088
Novocheremshansk,33.44,90,99,13.33,54.36,50.17,RU,1604991088
Kokstad,52.59,92,100,4.63,-30.55,29.42,ZA,1604991088
Fairbanks,21.2,92,40,4.7,64.84,-147.72,US,1604990918
São Francisco,69.55,70,65,1.66,-15.95,-44.86,BR,1604991089
Alofi,73.4,78,77,6.93,-19.06,-169.92,NU,1604991089
Istmina,71.56,96,100,1.1,5.16,-76.68,CO,1604991089
Abu Samrah,65.23,51,0,6.58,35.3,37.18,SY,1604991089
Oussouye,82.4,83,20,4.7,12.48,-16.55,SN,1604991090
Mayo,55.4,100,1,6.38,38.89,-76.51,US,1604991090
Kjøllefjord,35.6,80,75,20.8,70.95,27.35,NO,1604991090
Custódia,69.49,80,36,7.63,-8.09,-37.64,BR,1604991090
Dunedin,53.01,75,12,11.01,-45.87,170.5,NZ,1604991090
Jalu,63.82,71,0,8.57,29.03,21.55,LY,1604991091
San Cristobal,66.24,86,100,2.01,7.77,-72.22,VE,1604991091
Mandalgovi,43.5,47,99,15.3,45.76,106.27,MN,1604991091
Maxixe,84.2,70,40,13.87,-23.86,35.35,MZ,1604991091
West Bay,79.0,89,87,3.0,19.37,-81.42,KY,1604991092
San Andrés,80.6,88,40,4.7,12.58,-81.7,CO,1604990842
Severobaykal'sk,36.3,88,100,4.63,55.65,109.32,RU,1604991092
Kurmanayevka,34.34,84,96,15.64,52.51,52.07,RU,1604991092
Bariloche,54.0,81,0,5.82,-41.15,-71.31,AR,1604991092
Camargo,60.15,62,0,7.61,27.67,-105.17,MX,1604991093
Vestmannaeyjar,41.0,75,0,14.99,63.44,-20.27,IS,1604991093
Sheltozero,35.4,84,73,15.73,61.37,35.37,RU,1604991093
Santa Cruz de la Sierra,73.4,83,75,8.05,-17.8,-63.17,BO,1604991093
Tambo,40.05,70,40,0.98,-14.8,-73.92,PE,1604991094
Calbuco,51.8,93,90,6.93,-41.77,-73.13,CL,1604991094
Vila do Maio,77.0,78,0,13.87,15.13,-23.22,CV,1604991094
Steinbach am Taunus,46.99,93,90,5.82,50.17,8.57,DE,1604991094
Faya,69.8,29,0,0.47,18.39,42.45,SA,1604991095
Pontianak,85.24,74,77,5.57,-0.03,109.33,ID,1604991095
College Place,42.01,52,90,14.99,46.05,-118.39,US,1604991095
Saint-Pierre,82.4,54,0,23.04,-21.34,55.48,RE,1604991095
Nyaunglebin,85.53,63,0,5.12,17.95,96.73,MM,1604991095
Rosarito,55.4,81,1,3.36,32.33,-117.03,MX,1604991096
Lavrentiya,34.32,91,100,7.83,65.58,-171.0,RU,1604991096
Kysyl-Syr,-0.65,91,100,9.46,63.9,122.76,RU,1604991096
Sampit,93.92,43,60,5.01,-2.53,112.95,ID,1604990953
Tambun,93.99,59,40,6.93,-6.26,107.07,ID,1604991097
Ulaanbaatar,41.0,30,40,4.47,47.91,106.88,MN,1604990964
Borogontsy,-10.88,87,100,8.9,62.67,131.17,RU,1604991097
Ramnagar,81.97,24,100,4.52,29.4,79.12,IN,1604991097
Hualmay,60.01,88,80,4.45,-11.1,-77.61,PE,1604991097
Hudson Bay,3.56,93,0,5.5,52.85,-102.38,CA,1604991098
Boda,73.51,80,43,2.62,4.32,17.47,CF,1604991098
Khani,50.0,87,90,5.82,41.96,42.96,GE,1604991098
Benjamin Constant,75.2,100,75,2.24,-4.38,-70.03,BR,1604991098
Belaya Gora,-21.69,88,35,1.16,68.53,146.42,RU,1604991098
Birao,82.09,29,0,10.07,10.28,22.79,CF,1604991021
Linda,39.2,69,1,2.39,39.13,-121.55,US,1604991099
Richards Bay,71.85,74,100,11.32,-28.78,32.04,ZA,1604991099
Bad Liebenwerda,42.01,86,90,5.82,51.52,13.4,DE,1604991099
Uniontown,59.0,50,0,1.01,39.9,-79.72,US,1604990854
Luís Correia,79.57,77,33,14.56,-2.88,-41.67,BR,1604991099
Hasaki,62.01,47,20,9.17,35.73,140.83,JP,1604991100
Safford,39.2,64,1,6.93,32.83,-109.71,US,1604991100
Gouré,73.99,35,0,5.99,13.98,10.27,NE,1604991100
Goderich,68.0,56,0,17.22,43.75,-81.72,CA,1604991100
Parfen'yevo,32.81,95,97,10.13,58.48,43.41,RU,1604991101
Amahai,84.72,70,100,5.35,-3.33,128.92,ID,1604991101
Laguna,42.8,60,1,3.36,38.42,-121.42,US,1604990860
Ugoofaaru,83.37,74,46,9.33,5.67,73.0,MV,1604991102
Tessalit,68.7,25,27,13.13,20.2,1.01,ML,1604991102
Bonavista,39.99,93,96,3.36,48.65,-53.11,CA,1604991102
Omsukchan,-15.45,84,97,4.47,62.53,155.8,RU,1604991103
Aktobe,33.8,80,75,11.18,50.28,57.21,KZ,1604991103
Serenje,84.63,27,100,10.04,-13.23,30.24,ZM,1604991103
Yamada,43.21,59,96,6.6,39.47,141.95,JP,1604991103
Walvis Bay,55.0,93,0,11.41,-22.96,14.51,NA,1604991103
Buin,62.01,76,0,6.93,-33.73,-70.75,CL,1604991104
Bull Savanna,76.19,84,96,4.32,17.89,-77.59,JM,1604991104
Mataram,89.6,59,40,14.99,-8.58,116.12,ID,1604991104
Malé,84.2,83,90,6.93,4.17,73.51,MV,1604991104
Shache,60.06,23,0,4.21,38.42,77.24,CN,1604991105
La Santisima Trinidad,74.12,88,100,3.33,-14.83,-64.9,BO,1604990819
Sinnamary,77.43,86,49,6.35,5.38,-52.95,GF,1604991105
Odawara,59.0,61,75,3.36,35.26,139.16,JP,1604991105
Hue,71.6,100,75,10.29,16.47,107.6,VN,1604991105
Basse-Pointe,79.0,94,0,4.7,14.87,-61.12,MQ,1604991106
Virovitica,45.0,100,90,3.36,45.83,17.38,HR,1604991106
Oranjestad,78.8,94,20,3.36,12.52,-70.03,AW,1604991106
Aras,53.01,93,40,8.05,42.56,-2.36,ES,1604991106
Ca Mau,86.79,59,100,9.37,9.18,105.15,VN,1604991107
Dandong,50.05,45,0,3.15,40.13,124.39,CN,1604991107
Ambilobe,95.13,27,56,10.18,-13.2,49.05,MG,1604991107
Lukovetskiy,33.8,86,40,8.95,64.3,41.92,RU,1604991107
Ulladulla,73.0,60,0,14.99,-35.35,150.47,AU,1604991107
Bone,41.0,89,8,1.99,51.97,12.14,DE,1604991108
Dawlatabad,57.54,36,0,8.3,36.41,64.91,AF,1604991108
Berlevåg,35.6,80,75,29.97,70.86,29.09,NO,1604991108
Tubmanburg,73.29,96,1,1.9,6.87,-10.82,LR,1604991108
Letlhakane,89.1,30,79,19.66,-21.42,25.58,BW,1604991108
Tilbury,54.0,95,66,1.01,51.46,0.36,GB,1604991109
São João da Barra,72.75,92,32,5.73,-21.64,-41.05,BR,1604991109
Nexø,46.4,87,69,6.93,55.06,15.13,DK,1604991109
Helmond,48.99,100,90,3.36,51.48,5.66,NL,1604991109
Hambantota,87.8,70,40,8.05,6.12,81.12,LK,1604990898
Kloulklubed,82.4,74,90,9.17,7.04,134.26,PW,1604991110
Kieta,83.34,69,100,2.42,-6.22,155.63,PG,1604991110
Valparaíso,57.0,93,90,3.36,-33.04,-71.63,CL,1604991110
Aksu,55.26,29,0,3.24,41.12,80.26,CN,1604990929
Mogadishu,80.6,61,75,9.17,2.04,45.34,SO,1604990740
Vanavara,32.45,94,100,11.34,60.34,102.28,RU,1604991111
Imbituba,68.0,100,75,2.24,-28.24,-48.67,BR,1604991066
Coxim,71.82,92,100,6.35,-18.51,-54.76,BR,1604991111
Brae,51.8,93,75,12.75,60.4,-1.35,GB,1604991111
Kaili,82.49,56,100,4.38,-3.46,120.21,ID,1604991111
Sittwe,86.92,53,0,3.29,20.15,92.9,MM,1604991112
Kavaratti,87.8,66,20,6.93,10.57,72.64,IN,1604991112
Odienné,72.5,72,29,2.53,9.51,-7.57,CI,1604991112
Kahului,80.6,65,40,17.22,20.89,-156.47,US,1604991097
Marsh Harbour,80.06,82,51,27.2,26.54,-77.06,BS,1604991113
Puro,76.71,93,100,4.23,12.48,123.38,PH,1604991113
Hobyo,83.37,66,81,18.23,5.35,48.53,SO,1604991113
Grande-Synthe,51.01,98,56,4.0,51.02,2.3,FR,1604991113
Aginskoye,35.83,83,0,4.32,51.1,114.53,RU,1604991114
Khandyga,-14.51,87,100,3.2,62.67,135.6,RU,1604991114
Maţāy,69.48,50,0,2.91,28.42,30.78,EG,1604990933
Kilindoni,80.2,83,56,15.68,-7.91,39.67,TZ,1604991114
Prince Albert,-4.0,83,40,4.7,53.2,-105.77,CA,1604991114
Shetpe,48.81,65,92,9.35,44.17,52.12,KZ,1604991115
Impfondo,69.91,97,100,3.29,1.64,18.07,CG,1604991115
Kalmunai,82.83,79,100,14.94,7.42,81.82,LK,1604991115
Ol'ga,29.3,77,0,12.1,43.74,135.29,RU,1604991115
Qaqortoq,25.86,93,3,3.44,60.72,-46.03,GL,1604991115
Kupang,86.0,74,40,13.87,-10.17,123.58,ID,1604990898
Juba,84.61,54,4,4.45,4.85,31.58,SS,1604991116
Visnes,51.01,93,75,5.82,59.36,5.22,NO,1604991116
Cairns,84.2,54,90,14.99,-16.92,145.77,AU,1604990836
Yumen,52.45,29,100,8.1,40.28,97.2,CN,1604991117
Luján,62.01,95,1,3.0,-34.57,-59.1,AR,1604991117
Kattivākkam,86.0,51,75,10.29,13.22,80.32,IN,1604991117
Trairi,78.64,83,32,9.62,-3.28,-39.27,BR,1604991117
Noyabrsk,19.45,97,100,1.79,63.2,75.45,RU,1604991118
Cayenne,77.0,100,75,2.24,4.93,-52.33,GF,1604991118
Vrede,63.64,79,100,8.39,-27.43,29.17,ZA,1604991118
Collie,60.01,44,34,11.01,-33.37,116.15,AU,1604991119
Tazovsky,-1.43,93,97,7.31,67.47,78.7,RU,1604991119
Doha,86.0,51,0,3.36,25.29,51.53,QA,1604990891
Sabha,60.8,50,0,5.35,27.04,14.43,LY,1604990885
Amarkantak,73.58,33,0,4.99,22.67,81.75,IN,1604991120
Chamba,73.26,20,100,7.38,32.57,76.13,IN,1604991120
Mali Zvornik,41.0,100,90,1.12,44.37,19.11,RS,1604991120
Dzerzhinsk,35.6,85,75,11.18,56.24,43.46,RU,1604991120
Berdigestyakh,1.51,93,100,6.42,62.1,126.7,RU,1604991120
Poyarkovo,18.72,92,10,2.89,49.6,128.68,RU,1604991121
Reinosa,55.0,93,7,1.99,43.0,-4.14,ES,1604991121
Lázaro Cárdenas,74.52,87,33,4.65,17.96,-102.2,MX,1604991121
Shelburne,55.99,87,1,4.7,44.08,-80.2,CA,1604991121
Labuhan,88.72,58,100,10.56,-6.88,112.21,ID,1604991122
Kawalu,82.44,69,100,6.38,-7.38,108.21,ID,1604991122
Diffa,75.7,37,5,11.7,13.32,12.61,NE,1604991122
Yangi Marg`ilon,51.8,62,0,4.7,40.43,71.72,UZ,1604991123
Price,15.8,78,1,8.05,39.6,-110.81,US,1604990931
Talara,62.62,87,60,11.56,-4.58,-81.27,PE,1604991123
Ryōtsu-minato,50.0,61,75,11.41,38.08,138.43,JP,1604991123
Husavik,44.6,77,0,2.24,66.04,-17.34,IS,1604990914
The Pas,5.0,84,1,10.29,53.83,-101.25,CA,1604990900
Marzuq,78.62,28,22,3.06,14.4,46.47,YE,1604991124
Paragominas,72.59,98,100,1.5,-2.97,-47.48,BR,1604991124
Nouakchott,66.2,25,0,41.38,18.09,-15.98,MR,1604991124
Cap-aux-Meules,50.0,87,25,13.87,47.38,-61.86,CA,1604991124
Padang,80.58,76,100,3.53,-0.95,100.35,ID,1604991125
Isangel,78.8,83,90,14.56,-19.55,169.27,VU,1604991125
Manzhouli,33.69,88,0,4.56,49.6,117.43,CN,1604991125
Souillac,78.8,69,40,12.75,-20.52,57.52,MU,1604991125
High Rock,80.4,82,78,26.19,26.62,-78.28,BS,1604991126
Danielskuil,67.06,41,0,7.78,-28.19,23.54,ZA,1604991126
Aquiraz,78.8,83,75,6.93,-3.9,-38.39,BR,1604991087
Puerto Rico,64.65,98,29,0.94,-26.8,-55.02,AR,1604991126
Lexington,62.6,67,1,9.17,37.99,-84.48,US,1604991120
Deputatsky,-21.42,89,23,2.66,69.3,139.9,RU,1604991127
Sørland,39.2,69,0,6.93,67.67,12.69,NO,1604990926
Bandarbeyla,81.07,67,0,15.61,9.49,50.81,SO,1604991127
Gunnedah,80.6,28,0,8.05,-30.98,150.25,AU,1604991127
Atherton,54.0,87,0,1.99,53.52,-2.49,GB,1604991127
Billings Metropolitan Area,19.99,74,0,3.0,45.78,-108.5,US,1604990890
Corning,55.99,86,1,5.1,42.14,-77.05,US,1604991128
Ocampo,51.75,51,74,2.35,21.65,-101.5,MX,1604991128
Pedersore,39.99,100,0,2.24,63.65,22.68,FI,1604991128
Nosy Varika,79.72,63,0,7.52,-20.58,48.53,MG,1604991128
Sharlyk,31.69,94,100,16.13,52.92,54.75,RU,1604991129
Srednekolymsk,-6.63,91,100,12.53,67.45,153.68,RU,1604991129
Vanimo,84.87,68,2,4.12,-2.67,141.3,PG,1604991129
Diego de Almagro,52.41,77,0,2.89,-26.37,-70.05,CL,1604991129
Genhe,31.55,96,100,3.53,50.78,121.52,CN,1604991129
‘Ewa Beach,78.8,69,1,4.7,21.32,-158.01,US,1604991130
Zhangye,61.02,20,10,5.73,38.93,100.45,CN,1604991130
Crib Point,89.01,26,1,5.01,-38.35,145.2,AU,1604991130
Palmer,46.99,100,1,3.09,42.16,-72.33,US,1604991130
Khawhai,78.93,39,0,0.78,23.37,93.12,IN,1604991131
Severnyy,34.54,86,0,11.18,50.68,36.55,RU,1604991131
Gazli,54.97,39,0,1.7,40.13,63.45,UZ,1604991131
Payo,91.18,50,59,4.36,-3.75,103.64,ID,1604991131
Nagycserkesz,41.0,100,90,1.12,47.97,21.53,HU,1604991131
Paamiut,26.08,89,100,20.15,61.99,-49.67,GL,1604991132
Rawson,58.87,87,0,3.62,-43.3,-65.1,AR,1604991132
Cockburn Town,81.57,81,100,21.27,21.46,-71.14,TC,1604991132
Kiruna,17.6,85,87,8.05,67.86,20.23,SE,1604991132
Lodwar,88.32,36,71,18.07,3.12,35.6,KE,1604991132
Bilibino,-3.39,89,93,1.23,68.05,166.44,RU,1604991133
Petropavlovsk-Kamchatskiy,30.2,63,100,6.71,53.05,158.65,RU,1604991133
Kouroussa,68.81,53,0,1.7,10.65,-9.88,GN,1604991133
Port Macquarie,72.0,60,0,12.75,-31.43,152.92,AU,1604991133
Yuli,77.02,26,0,5.35,9.7,10.27,NG,1604991134
Luebo,75.87,79,73,0.69,-5.35,21.42,CD,1604991134
Fare,79.83,76,100,13.29,-16.7,-151.02,PF,1604991134
Chimbote,58.6,90,84,2.82,-9.09,-78.58,PE,1604991134
Pimentel,61.14,88,91,5.99,-6.84,-79.93,PE,1604991134
Xining,53.47,29,0,2.98,36.62,101.77,CN,1604991135
São José da Coroa Grande,75.72,84,27,11.07,-8.9,-35.15,BR,1604991135
Lufilufi,80.6,88,75,5.82,-13.87,-171.6,WS,1604991135
Puerto El Triunfo,75.2,100,40,2.24,13.28,-88.55,SV,1604991135
Stavern,42.01,100,90,3.36,59.0,10.03,NO,1604991135
Guozhen,68.49,37,3,6.02,34.37,107.36,CN,1604991136
San Antonio,69.8,94,75,9.17,29.42,-98.49,US,1604991091
Nemuro,39.2,64,40,8.05,43.32,145.57,JP,1604991136
Batagay-Alyta,-17.77,86,100,2.93,67.8,130.41,RU,1604991136
Sindor,27.99,97,95,6.13,62.86,51.89,RU,1604991137
Kulhudhuffushi,83.8,72,48,8.12,6.62,73.07,MV,1604991137
Pallipattu,84.2,48,20,11.41,13.34,79.44,IN,1604991137
San Juan,65.14,68,10,24.05,-31.54,-68.54,AR,1604991086
Rumphi,84.06,33,99,10.67,-11.02,33.86,MW,1604991138
Manakara,81.45,60,0,10.74,-22.13,48.02,MG,1604991138
Port Hedland,91.4,43,0,21.92,-20.32,118.57,AU,1604991138
Pittsburg,45.0,48,1,5.82,38.03,-121.88,US,1604991138
Kumul,54.52,34,0,3.02,42.8,93.45,CN,1604991139
Coquimbo,53.6,93,100,3.36,-29.95,-71.34,CL,1604991075
Morón,66.0,98,18,6.33,-34.65,-58.62,AR,1604991139
Buerarema,65.77,94,42,1.79,-14.96,-39.3,BR,1604991139
Lokosovo,27.39,97,98,9.19,61.13,74.82,RU,1604991140
Chokwé,79.83,56,84,14.99,-24.53,32.98,MZ,1604991140
Upanema,75.72,76,0,4.45,-5.64,-37.26,BR,1604991140
Huánuco,61.92,65,95,0.98,-9.93,-76.24,PE,1604991141
Erenhot,49.24,42,0,10.27,43.65,111.98,CN,1604991141
Kozluk,55.4,100,0,2.24,38.19,41.49,TR,1604991141
Huilong,66.99,45,0,6.96,31.81,121.66,CN,1604991141
Nizhniy Tsasuchey,37.54,77,0,5.28,50.52,115.13,RU,1604991142
Birjand,60.8,31,0,4.7,32.87,59.22,IR,1604991099
Praia da Vitória,64.99,93,75,25.1,38.73,-27.07,PT,1604991142
Zhezkazgan,41.61,60,0,8.12,47.8,67.71,KZ,1604991142
Katghora,82.27,31,0,4.83,22.5,82.55,IN,1604991142
Devgarh,81.3,15,0,3.18,25.53,73.9,IN,1604991143
Liuzhou,76.71,29,0,11.32,24.31,109.39,CN,1604991143
Victoria Point,75.0,51,0,4.0,-27.58,153.3,AU,1604991143
Mīzan Teferī,72.97,73,17,0.6,6.98,35.58,ET,1604991143
Taree,69.8,60,0,12.75,-31.9,152.47,AU,1604991144
Terrace,32.0,86,90,2.24,54.52,-128.6,CA,1604991144
Ust-Maya,-10.28,89,100,3.44,60.42,134.53,RU,1604991144
Dwārka,85.26,38,0,9.01,22.24,68.97,IN,1604991144
Mildura,95.0,19,22,20.8,-34.2,142.15,AU,1604991144
Sainte-Maxime,54.0,100,90,2.24,43.3,6.63,FR,1604991145
Filingué,74.95,26,62,7.9,14.35,3.32,NE,1604991145
Salina Cruz,75.43,83,0,5.03,16.17,-95.2,MX,1604991145
Savelugu,77.18,41,1,4.38,9.62,-0.83,GH,1604991145
Ballina,75.2,53,0,10.29,-28.87,153.57,AU,1604991146
Chajul,53.29,100,77,0.96,15.49,-91.03,GT,1604991146
Sinuknipan,84.99,69,100,7.56,13.89,122.64,PH,1604991146
Bahía Solano,75.4,87,100,2.62,6.23,-77.4,CO,1604991146
Sannat,63.0,82,20,3.36,36.02,14.24,MT,1604991146
Shklo,42.8,93,90,6.71,49.96,23.54,UA,1604991147
Pahrump,33.01,51,0,1.14,36.21,-115.98,US,1604991080
Samarkand,51.8,66,0,6.93,39.65,66.96,UZ,1604991147
Bella Vista,69.01,82,75,10.29,36.43,-94.23,US,1604991147
Ozernovskiy,34.92,82,100,7.92,51.5,156.52,RU,1604991147
Vao,70.74,65,98,14.38,-22.67,167.48,NC,1604991147
Shingū,59.0,51,20,18.34,33.73,135.98,JP,1604991148
Nuuk,13.71,89,100,4.43,64.18,-51.72,GL,1604991148
Grande Prairie,35.6,64,90,11.41,55.17,-118.8,CA,1604991003
Arrondissement de Lannion,51.8,100,75,4.7,48.75,-3.42,FR,1604991148
Kayerkan,1.4,84,40,11.18,69.35,87.76,RU,1604991148
Kupino,34.97,83,99,19.15,54.37,77.3,RU,1604991149
Cimarron Hills,28.4,86,75,8.05,38.86,-104.7,US,1604991149
Nizhnyaya Tavda,31.95,96,100,9.15,57.67,66.17,RU,1604991149
Rolla,66.99,82,90,13.87,37.95,-91.77,US,1604990885
Valleyview,35.6,69,100,8.05,55.07,-117.29,CA,1604991150
Bulungu,72.81,85,100,2.98,-4.55,18.6,CD,1604991150
Katherine,102.2,20,40,13.87,-14.47,132.27,AU,1604991150
Margate,54.0,92,8,1.99,51.38,1.39,GB,1604991150
Fort-Shevchenko,51.96,76,100,9.75,44.51,50.26,KZ,1604991150
Bajil,85.86,47,2,4.47,15.06,43.29,YE,1604991151
Avera,68.0,86,90,8.05,33.19,-82.53,US,1604991151
NEDJO,70.41,57,30,2.68,9.5,35.5,ET,1604991151
Kasongo-Lunda,72.59,92,100,1.41,-6.47,16.82,CD,1604991151
Sibu,89.6,66,40,4.7,2.3,111.82,MY,1604990968
Carballo,54.0,93,75,4.7,43.21,-8.69,ES,1604991152
Pinawa,18.28,85,95,9.98,50.15,-95.88,CA,1604991152
Orodara,71.6,53,0,6.93,10.95,-4.93,BF,1604991152
Lewiston,51.01,100,1,3.09,44.1,-70.21,US,1604991152
Nadym,5.29,93,73,5.86,65.53,72.52,RU,1604991153
Solnechnyy,17.15,82,0,1.88,50.72,136.63,RU,1604991153
São Félix do Xingu,71.19,93,100,0.85,-6.64,-51.99,BR,1604991153
Samarai,80.26,81,100,13.51,-10.62,150.67,PG,1604991153
Hervey Bay,75.0,59,0,4.0,-25.3,152.85,AU,1604991153
Nevers,51.8,100,90,2.15,46.99,3.16,FR,1604990877
Savinka,38.21,71,0,15.5,50.08,47.1,RU,1604991154
Coari,74.28,93,85,1.48,-4.08,-63.14,BR,1604991154
Watertown,59.0,87,1,5.46,42.37,-71.18,US,1604991154
Ngawen,91.6,46,100,4.07,-7.0,111.31,ID,1604991154
Tezu,84.25,34,0,3.27,27.92,96.17,IN,1604991155
Madaoua,73.22,28,0,13.69,14.07,5.96,NE,1604991155
Varnavino,32.04,94,14,9.73,57.4,45.09,RU,1604991155
Valley City,19.4,85,1,11.41,46.92,-98.0,US,1604991155
Bartica,71.17,97,27,1.12,6.4,-58.62,GY,1604991156
Mitsamiouli,80.65,75,81,14.97,-11.38,43.28,KM,1604991156
Kadipaten,86.34,60,65,8.28,-8.14,113.22,ID,1604991156
Tepepa,51.28,45,0,5.3,20.13,-98.18,MX,1604991156
Alugan,77.94,89,100,11.25,12.22,125.48,PH,1604991156
Bonfim,76.62,69,0,5.32,3.08,-59.95,BR,1604991157
Chingirlau,38.25,72,0,19.69,51.09,54.08,KZ,1604991157
Fareydūnshahr,50.02,49,19,5.41,32.94,50.12,IR,1604991157
Podor,75.2,73,0,8.19,16.65,-14.96,MR,1604991158
Gillette,19.4,67,1,3.36,44.29,-105.5,US,1604991067
Kaniama,69.85,88,100,4.23,-7.57,24.18,CD,1604991158
Ejura,74.16,87,1,4.43,7.39,-1.36,GH,1604991158
Kapuskasing,60.8,87,90,13.87,49.42,-82.43,CA,1604991159
Jumla,64.38,28,2,6.78,29.27,82.18,NP,1604991159
Thasos,59.0,62,75,6.93,40.69,24.65,GR,1604991159
Nyurba,27.99,98,100,6.29,63.28,118.33,RU,1604991158
Alice Springs,105.8,6,75,17.22,-23.7,133.88,AU,1604991105
Yunyang,70.75,23,0,6.49,33.45,112.71,CN,1604991160
Williams Lake,23.0,92,75,5.82,52.14,-122.14,CA,1604991160
Aleksandrovsk-Sakhalinskiy,22.19,94,100,19.84,50.9,142.16,RU,1604991160
Sobolevo,36.72,92,39,10.49,54.43,31.9,RU,1604991160
Toppenish,39.2,79,90,3.36,46.38,-120.31,US,1604991160
Poronaysk,24.44,83,20,9.4,49.22,143.12,RU,1604991161
Altay,37.17,67,100,5.17,47.87,88.12,CN,1604991161
Kikwit,69.51,96,99,2.55,-5.04,18.82,CD,1604991161
Green River,19.4,79,90,19.46,41.53,-109.47,US,1604991161
Nouadhibou,68.0,72,0,10.29,20.93,-17.03,MR,1604991162
Robertson,66.2,72,90,9.1,36.52,-86.87,US,1604991162
George Town,89.6,59,20,4.7,5.41,100.34,MY,1604991162
Sovetskiy,27.68,90,42,4.0,61.36,63.58,RU,1604991162
Benguela,77.0,83,90,2.35,-12.58,13.41,AO,1604991162
Badou,75.29,78,1,1.7,7.58,0.6,TG,1604991162
Bowen,78.8,57,40,17.22,-20.02,148.23,AU,1604990987
Adilcevaz,50.0,71,75,1.39,38.8,42.73,TR,1604990883
Aracoiaba,74.64,87,4,3.65,-4.37,-38.81,BR,1604991163
Tual,85.1,69,92,6.26,-5.67,132.75,ID,1604991163
Butterworth,89.6,59,20,4.7,5.4,100.36,MY,1604991163
Coahuayana Viejo,72.21,77,25,3.91,18.73,-103.68,MX,1604991164
At-Bashi,44.26,54,0,2.37,41.17,75.81,KG,1604991164
Kisangani,71.04,97,100,3.29,0.52,25.2,CD,1604991164
Paragould,64.4,93,40,4.7,36.06,-90.5,US,1604991164
Pelotas,63.73,95,100,13.2,-31.77,-52.34,BR,1604991164
Lebedinyy,23.27,98,100,7.18,58.52,125.52,RU,1604991165
Nautla,72.48,87,0,6.78,20.22,-96.78,MX,1604991165
Banda Aceh,84.92,70,97,7.99,5.56,95.32,ID,1604991165
Gigmoto,82.18,83,100,8.48,13.78,124.39,PH,1604991165
Lethem,75.88,69,0,8.97,3.38,-59.8,GY,1604991166
Santa Rosa,84.99,83,75,3.36,14.31,121.11,PH,1604991166
Jiangyou,68.4,57,61,5.97,31.77,104.72,CN,1604991166
Garmsār,60.17,44,84,2.42,35.22,52.34,IR,1604991166
Georgiyevka,44.6,65,0,2.24,43.04,74.71,KZ,1604991166
Aleksandrov Gay,38.25,71,0,15.77,50.15,48.57,RU,1604991167
Leirvik,46.99,98,100,4.25,59.78,5.5,NO,1604991167
Myrtle Beach,71.6,88,1,4.7,33.69,-78.89,US,1604991167
Kamenka,30.99,90,26,14.0,51.32,42.77,RU,1604991167
Markova,42.8,93,90,4.47,48.68,24.41,UA,1604991167
Hukuntsi,74.21,38,76,11.72,-24.0,21.75,BW,1604991168
Buraidah,69.8,77,75,5.82,26.33,43.98,SA,1604991168
Kŭlob,57.2,54,90,4.47,37.91,69.78,TJ,1604991168
Amapá,71.33,98,100,1.48,1.0,-52.0,BR,1604991169
Eldorado,67.78,96,98,5.48,-23.79,-54.28,BR,1604991169
Kiryat Gat,70.0,73,0,9.46,31.61,34.76,IL,1604991169
Ürümqi,46.4,39,0,4.47,43.8,87.6,CN,1604991016
Tiszabura,37.4,100,90,3.56,47.45,20.47,HU,1604991169
Yakima,34.0,69,90,3.36,46.47,-120.67,US,1604991092
Joshīmath,63.09,27,99,7.38,30.57,79.57,IN,1604991170
Darnah,65.32,82,100,17.96,32.77,22.64,LY,1604991170
Malakal,86.02,22,0,10.58,9.53,31.66,SS,1604991170
Shimoda,59.0,47,75,8.05,34.67,138.95,JP,1604991170
Newtownards,54.0,100,75,4.7,54.59,-5.69,GB,1604991171
Akureyri,44.6,81,0,2.24,65.68,-18.09,IS,1604991171
Yulara,105.8,10,45,21.92,-25.24,130.99,AU,1604991171
Chilca,64.4,82,75,9.17,-12.52,-76.74,PE,1604991171
Henties Bay,55.0,91,0,4.18,-22.12,14.28,NA,1604991171
Russell,71.6,83,90,6.93,32.35,-85.2,US,1604991172
Magaria,72.64,29,0,12.08,13.0,8.91,NE,1604991172
Tomatlán,71.01,95,11,1.83,19.93,-105.25,MX,1604991172
Andenes,35.6,69,75,5.82,69.31,16.12,NO,1604991172
Fes,55.4,87,40,2.24,34.04,-5.0,MA,1604991172
Linqing,68.63,24,0,7.14,36.85,115.71,CN,1604991173
Hofn,45.05,74,100,17.02,64.25,-15.21,IS,1604991173
Leshukonskoye,31.73,98,100,8.41,64.9,45.76,RU,1604991173
Salmās,50.0,76,75,4.7,38.2,44.77,IR,1604991173
Três Lagoas,70.23,88,100,9.89,-20.75,-51.68,BR,1604991173
Along,83.5,30,0,1.45,28.17,94.77,IN,1604991174
Andros Town,80.6,88,75,12.75,24.7,-77.77,BS,1604991174
Moranbah,80.58,40,70,14.29,-22.0,148.05,AU,1604991174
Boa Vista,78.8,83,0,2.24,2.82,-60.67,BR,1604990916
Abong Mbang,73.54,77,100,1.83,3.98,13.18,CM,1604991174
Atikokan,24.3,87,0,10.98,48.76,-91.62,CA,1604991175
Yala,87.8,62,20,8.05,6.33,101.25,TH,1604991175
Smithers,28.4,92,90,2.19,54.78,-127.17,CA,1604991128
Lander,19.4,92,1,3.36,42.83,-108.73,US,1604991081
Velyka Mykhaylivka,48.87,55,100,8.14,47.08,29.85,UA,1604991175
